[
  {
    "name": "Allston-Brighton APAC",
    "address": "406 Cambridge St, Allston, MA 02134",
    "phone": "(617) 783-1485",
    "availability": {
      "mon": [
        "10:00am",
        "02:00pm"
      ],
      "tue": [
        "10:00am",
        "02:00pm"
      ],
      "wed": [
        "10:00am",
        "02:00pm"
      ],
      "thu": [
        "10:00am",
        "02:00pm"
      ],
      "fri": [
        "10:00am",
        "02:00pm"
      ],
      "sat": [],
      "sun": []
    },
    "category": "Food Pantry",
    "latitude": 42.35484,
    "longitude": -71.13375
  },
  {
    "name": "Codman Square Food Pantry",
    "address": "378A Washington Street, Dorchester, MA 02124",
    "phone": "(617) 825-9660",
    "availability": {
      "mon": [],
      "tue": [
        "08:30am",
        "10:30am"
      ],
      "wed": [],
      "thu": [],
      "fri": [],
      "sat": [],
      "sun": []
    },
    "category": "Food Pantry",
    "latitude": 42.29864,
    "longitude": -71.07288
  },
  {
    "name": "Dorchester House Health",
    "address": "1353 Dorchester Ave, Dorchester, MA 02122",
    "phone": "(617) 288-3230",
    "availability": {
      "mon": [],
      "tue": [],
      "wed": [
        "08:00am",
        "10:00am"
      ],
      "thu": [],
      "fri": [],
      "sat": [],
      "sun": []
    },
    "category": "Food Pantry",
    "latitude": 42.30444,
    "longitude": -71.05945
  },
  {
    "name": "Neponset Health Center",
    "address": "398 Neponset Ave, Dorchester, MA 02122",
    "phone": "(617) 282-3200",
    "availability": {
      "mon": [],
      "tue": [
        "08:00am",
        "11:00am"
      ],
      "wed": [],
      "thu": [],
      "fri": [],
      "sat": [],
      "sun": []
    },
    "category": "Food Pantry",
    "latitude": 42.28655,
    "longitude": -71.04398
  },
  {
    "name": "Holy Tabernacle Church",
    "address": "70 Washington St, Dorchester MA 02121",
    "phone": "(617) 427-8022",
    "availability": {
      "mon": [],
      "tue": [],
      "wed": [],
      "thu": [],
      "fri": [
        "09:00am",
        "03:30pm"
      ],
      "sat": [],
      "sun": []
    },
    "category": "Food Pantry",
    "latitude": 42.30668,
    "longitude": -71.08081
  },
  {
    "name": "Salvation Army/ Boston Kroc Center",
    "address": "650 Dudley St, Dorchester, MA 02125",
    "phone": "(617) 318-6936",
    "availability": {
      "mon": [],
      "tue": [
        "09:45am",
        "12:00pm"
      ],
      "wed": [
        "09:45am",
        "12:00pm"
      ],
      "thu": [
        "09:45am",
        "12:00pm"
      ],
      "fri": [],
      "sat": [],
      "sun": []
    },
    "category": "Food Pantry",
    "latitude": 42.31933,
    "longitude": -71.07009
  },
  {
    "name": "Pilgrim Church",
    "address": "540 Columbia Rd, Dorchester, MA 02125",
    "phone": "(617) 282-0456",
    "availability": {
      "mon": [],
      "tue": [],
      "wed": [
        "10:00am",
        "12:00pm"
      ],
      "thu": [],
      "fri": [],
      "sat": [],
      "sun": []
    },
    "category": "Food Pantry",
    "latitude": 42.31602,
    "longitude": -71.06663
  },
  {
    "name": "USCCB/Blessed Mother St.Teresa Parish of Calcutta",
    "address": "800 Columbia Rd, Dorchester, MA 02125",
    "phone": "(617) 436-2190",
    "availability": {
      "mon": [],
      "tue": [],
      "wed": [],
      "thu": [
        "11:00am",
        "01:00pm"
      ],
      "fri": [],
      "sat": [
        "09:00am",
        "11:00am"
      ],
      "sun": []
    },
    "category": "Food Pantry",
    "latitude": 42.32066,
    "longitude": -71.05759
  },
  {
    "name": "Saint Anthony Shrine - Franciscan Food Center",
    "address": "100 Arch St, Boston, MA 02110",
    "phone": "(617) 542-6440 ex 258",
    "availability": {
      "mon": [],
      "tue": [],
      "wed": [],
      "thu": [
        "10:00am",
        "01:00pm"
      ],
      "fri": [],
      "sat": [
        "10:00am",
        "12:00pm"
      ],
      "sun": []
    },
    "category": "Food Pantry",
    "latitude": 42.3547,
    "longitude": -71.05843
  },
  {
    "name": "ABCD North End/ West End Pantry",
    "address": "1 Michelangelo St, Boston, MA 02113",
    "phone": "(617) 523-8125",
    "availability": {
      "mon": [
        "01:00pm",
        "03:30pm"
      ],
      "tue": [],
      "wed": [],
      "thu": [],
      "fri": [
        "01:00pm",
        "03:30pm"
      ],
      "sat": [],
      "sun": []
    },
    "category": "Food Pantry",
    "latitude": 42.36718,
    "longitude": -71.05487
  },
  {
    "name": "ABCD North End/ West End Neighborhood",
    "address": "1 Michelangelo St, Boston, MA 02113",
    "phone": "(617) 523-8125",
    "availability": {
      "mon": [],
      "tue": [
        "01:00pm",
        "03:30pm"
      ],
      "wed": [
        "01:00pm",
        "03:30pm"
      ],
      "thu": [
        "01:00pm",
        "03:30pm"
      ],
      "fri": [],
      "sat": [],
      "sun": []
    },
    "category": "Food Pantry",
    "latitude": 42.36718,
    "longitude": -71.05487
  },
  {
    "name": "Warwick House/ Saint Katherine Drexel",
    "address": "175 Ruggles St, Roxbury Crossing, MA 02120",
    "phone": "(617) 445-8915",
    "availability": {
      "mon": [],
      "tue": [],
      "wed": [],
      "thu": [
        "08:00am",
        "09:00am"
      ],
      "fri": [],
      "sat": [],
      "sun": []
    },
    "category": "Food Pantry",
    "latitude": 42.33471,
    "longitude": -71.08806
  },
  {
    "name": "Rosie’s Place",
    "address": "889 Harrison Ave, Boston, MA 02118",
    "phone": "(617) 318-0236",
    "availability": {
      "mon": [],
      "tue": [
        "09:00am",
        "12:00pm"
      ],
      "wed": [
        "09:00am",
        "12:00pm"
      ],
      "thu": [
        "09:00am",
        "12:00pm"
      ],
      "fri": [
        "09:00am",
        "12:00pm"
      ],
      "sat": [],
      "sun": []
    },
    "category": "Food Pantry",
    "latitude": 42.33404,
    "longitude": -71.07701
  },
  {
    "name": "Rosie’s Place",
    "address": "889 Harrison Ave, Boston, MA 02118",
    "phone": "(617) 318-0236",
    "availability": {
      "mon": [],
      "tue": [
        "04:30pm",
        "06:00pm"
      ],
      "wed": [
        "04:30pm",
        "06:00pm"
      ],
      "thu": [
        "04:30pm",
        "06:00pm"
      ],
      "fri": [
        "04:30pm",
        "06:00pm"
      ],
      "sat": [],
      "sun": []
    },
    "category": "Food Pantry",
    "latitude": 42.33404,
    "longitude": -71.07701
  },
  {
    "name": "Fair Foods at Yawkey Boys and Girls Club",
    "address": "115 Warren St, Roxbury, MA 02119",
    "phone": "(617) 427-6050",
    "availability": {
      "mon": [],
      "tue": [
        "04:30pm",
        "05:30pm"
      ],
      "wed": [],
      "thu": [],
      "fri": [],
      "sat": [],
      "sun": []
    },
    "category": "Food Pantry",
    "latitude": 42.3268,
    "longitude": -71.0838
  },
  {
    "name": "Twelfth Baptist Church",
    "address": "160 Warren St, Roxbury, MA 02119",
    "phone": "(617) 442-7855",
    "availability": {
      "mon": [],
      "tue": [
        "12:30pm",
        "01:30pm"
      ],
      "wed": [],
      "thu": [],
      "fri": [],
      "sat": [],
      "sun": []
    },
    "category": "Food Pantry",
    "latitude": 42.32546,
    "longitude": -71.08264
  },
  {
    "name": "American Red Cross",
    "address": "1033 Massachusetts Ave, Boston, MA 02118",
    "phone": "(617) 375-0735",
    "availability": {
      "mon": [],
      "tue": [],
      "wed": [
        "09:00am",
        "12:00pm"
      ],
      "thu": [],
      "fri": [],
      "sat": [
        "09:00am",
        "12:00pm"
      ],
      "sun": []
    },
    "category": "Food Pantry",
    "latitude": 42.32713,
    "longitude": -71.06764
  },
  {
    "name": "ABCD Roxbury/North Dorchester Neighborhood Opportunity Center",
    "address": "565 Warren St, Dorchester, MA 02121",
    "phone": "(617) 442-5900",
    "availability": {
      "mon": [
        "10:00am",
        "01:00pm"
      ],
      "tue": [
        "10:00am",
        "01:00pm"
      ],
      "wed": [
        "10:00am",
        "01:00pm"
      ],
      "thu": [
        "10:00am",
        "01:00pm"
      ],
      "fri": [],
      "sat": [],
      "sun": []
    },
    "category": "Food Pantry",
    "latitude": 42.31253,
    "longitude": -71.08336
  },
  {
    "name": "Saint Mary of the Angels",
    "address": "377 Walnut Ave, Roxbury, MA 02119",
    "phone": "(617) 833-1898",
    "availability": {
      "mon": [],
      "tue": [],
      "wed": [
        "05:00pm",
        "06:30pm"
      ],
      "thu": [],
      "fri": [],
      "sat": [],
      "sun": []
    },
    "category": "Food Pantry",
    "latitude": 42.31373,
    "longitude": -71.09498
  },
  {
    "name": "Grace and Hope Mission",
    "address": "1900 Columbus Ave, Roxbury, MA 02119",
    "phone": "(617) 442-7579",
    "availability": {
      "mon": [],
      "tue": [
        "11:00am",
        "12:00pm"
      ],
      "wed": [],
      "thu": [],
      "fri": [],
      "sat": [],
      "sun": []
    },
    "category": "Food Pantry",
    "latitude": 42.31711,
    "longitude": -71.0981
  },
  {
    "name": "ABCD/Parker Hill Fenway Neighborhood Service Center",
    "address": "714 Parker St, Roxbury Crossing, MA 02120",
    "phone": "(617) 445-6000",
    "availability": {
      "mon": [
        "09:00am",
        "12:30pm"
      ],
      "tue": [],
      "wed": [],
      "thu": [
        "09:00am",
        "12:30pm"
      ],
      "fri": [
        "09:00am",
        "12:30pm"
      ],
      "sat": [],
      "sun": []
    },
    "category": "Food Pantry",
    "latitude": 42.33123,
    "longitude": -71.09718
  },
  {
    "name": "Friday Night Supper",
    "address": "351 Boylston St, Boston, MA 02116",
    "phone": "(617) 536-7050 ext 22",
    "availability": {
      "mon": [],
      "tue": [],
      "wed": [],
      "thu": [],
      "fri": [
        "05:00pm",
        "07:00pm"
      ],
      "sat": [],
      "sun": []
    },
    "category": "Food Pantry",
    "latitude": 42.35203,
    "longitude": -71.07122
  },
  {
    "name": "Holy Redeemer Church/ Our Daily Bread Pantry",
    "address": "56 Havre St, Boston, MA 02128",
    "phone": "(617) 567-5926",
    "availability": {
      "mon": [],
      "tue": [],
      "wed": [
        "03:00pm",
        "04:00pm"
      ],
      "thu": [],
      "fri": [],
      "sat": [],
      "sun": [
        "03:00pm",
        "04:00pm"
      ]
    },
    "category": "Food Pantry",
    "latitude": 42.37104,
    "longitude": -71.04021
  },
  {
    "name": "Grace Federated Church/ Emergency Food Cupboard",
    "address": "760 Saratoga St, Boston, MA 02128",
    "phone": "(617) 569-5358",
    "availability": {
      "mon": [],
      "tue": [],
      "wed": [],
      "thu": [],
      "fri": [],
      "sat": [
        "10:00am",
        "12:00pm"
      ],
      "sun": []
    },
    "category": "Food Pantry",
    "latitude": 42.38396,
    "longitude": -71.01715
  },
  {
    "name": "Hyde Park Food Pantry Hyde Park Municipal Building",
    "address": "1179 River St, Hyde Park, MA 02136",
    "phone": "(617) 637-7413",
    "availability": {
      "mon": [],
      "tue": [
        "09:30am",
        "12:30pm"
      ],
      "wed": [],
      "thu": [
        "09:30am",
        "12:30pm"
      ],
      "fri": [],
      "sat": [],
      "sun": []
    },
    "category": "Food Pantry",
    "latitude": 42.25631,
    "longitude": -71.12108
  },
  {
    "name": "ABCD/Jamaica Plain",
    "address": "30 Bickford St, Jamaica Plain, MA 02130",
    "phone": "(617) 522-4830",
    "availability": {
      "mon": [],
      "tue": [
        "10:00am",
        "01:00pm"
      ],
      "wed": [
        "10:00am",
        "01:00pm"
      ],
      "thu": [
        "10:00am",
        "01:00pm"
      ],
      "fri": [],
      "sat": [],
      "sun": []
    },
    "category": "Food Pantry",
    "latitude": 42.3251904,
    "longitude": -71.1012901
  },
  {
    "name": "Saint Vincent De Paul/ Our Lady of Lourdes",
    "address": "45 Brookside Ave, Jamaica Plain, MA 02130",
    "phone": "(617) 524-0240",
    "availability": {
      "mon": [
        "06:00pm",
        "08:00pm"
      ],
      "tue": [],
      "wed": [],
      "thu": [],
      "fri": [],
      "sat": [],
      "sun": []
    },
    "category": "Food Pantry",
    "latitude": 42.31347,
    "longitude": -71.10367
  },
  {
    "name": "Gladtidings",
    "address": "573 Norfolk St, Mattapan, MA 02126",
    "phone": "(617) 296-6784",
    "availability": {
      "mon": [],
      "tue": [],
      "wed": [],
      "thu": [],
      "fri": [
        "10:00am",
        "12:30pm"
      ],
      "sat": [],
      "sun": []
    },
    "category": "Food Pantry",
    "latitude": 42.27741,
    "longitude": -71.09231
  },
  {
    "name": "Healthy Baby, Healthy Child",
    "address": "213 River St, Mattapan, MA 02126",
    "phone": "(617) 534-2032",
    "availability": {
      "mon": [
        "10:00am",
        "2:45pm"
      ],
      "tue": [],
      "wed": [
        "10:00am",
        "2:45pm"
      ],
      "thu": [],
      "fri": [
        "10:00am",
        "2:45pm"
      ],
      "sat": [],
      "sun": []
    },
    "category": "Food Pantry",
    "latitude": 42.27161,
    "longitude": -71.07961
  },
  {
    "name": "Greater Boston Nazarene Compassionate Center",
    "address": "130 River St, Mattapan, MA 02126",
    "phone": "(617) 296-7450",
    "availability": {
      "mon": [],
      "tue": [],
      "wed": [
        "08:00am",
        "01:00pm"
      ],
      "thu": [],
      "fri": [
        "08:00am",
        "01:00pm"
      ],
      "sat": [],
      "sun": []
    },
    "category": "Food Pantry",
    "latitude": 42.27129,
    "longitude": -71.07695
  },
  {
    "name": "Boston Medical Center",
    "address": "850 Harrison Avenue, Boston, MA 02118",
    "phone": "(617) 414-3834",
    "availability": {
      "mon": [
        "10:00am",
        "04:00pm"
      ],
      "tue": [
        "10:00am",
        "04:00pm"
      ],
      "wed": [
        "10:00am",
        "04:00pm"
      ],
      "thu": [
        "10:00am",
        "04:00pm"
      ],
      "fri": [
        "10:00am",
        "04:00pm"
      ],
      "sat": [],
      "sun": []
    },
    "category": "Food Pantry",
    "latitude": 42.3351,
    "longitude": -71.07471
  },
  {
    "name": "Haley House Soup Kitchen",
    "address": "23 Dartmouth St, Boston, MA 02116",
    "phone": "(617) 236-8132",
    "availability": {
      "mon": [],
      "tue": [],
      "wed": [],
      "thu": [
        "10:30am",
        "11:30am"
      ],
      "fri": [],
      "sat": [],
      "sun": []
    },
    "category": "Food Pantry",
    "latitude": 42.34373,
    "longitude": -71.07393
  },
  {
    "name": "Allston-Brighton Congregational Church",
    "address": "404 Washington St, Brighton, MA 02135",
    "phone": "(617) 254-4046",
    "availability": {
      "mon": [],
      "tue": [],
      "wed": [
        "06:00pm",
        "06:30pm"
      ],
      "thu": [],
      "fri": [],
      "sat": [],
      "sun": []
    },
    "category": "Meal Site",
    "latitude": 42.34877,
    "longitude": -71.15517
  },
  {
    "name": "East Boston Community Soup Kitchen",
    "address": "28 Paris St, East Boston 02128",
    "phone": "null",
    "availability": {
      "mon": [],
      "tue": [
        "12:00pm",
        "02:00pm"
      ],
      "wed": [],
      "thu": [],
      "fri": [],
      "sat": [],
      "sun": []
    },
    "category": "Meal Site",
    "latitude": 42.37009,
    "longitude": -71.04017
  },
  {
    "name": "East Boston Community Soup Kitchen",
    "address": "28 Paris St, East Boston 02128",
    "phone": "null",
    "availability": {
      "mon": [],
      "tue": [
        "04:00pm",
        "07:00pm"
      ],
      "wed": [],
      "thu": [],
      "fri": [],
      "sat": [],
      "sun": []
    },
    "category": "Meal Site",
    "latitude": 42.37009,
    "longitude": -71.04017
  },
  {
    "name": "Saint Augustine’s - Saint Monica’s",
    "address": "331 Old Colony Ave, South Boston, MA 02127",
    "phone": "(617) 268-1230",
    "availability": {
      "mon": [],
      "tue": [],
      "wed": [
        "12:30pm",
        "01:30pm"
      ],
      "thu": [],
      "fri": [],
      "sat": [],
      "sun": []
    },
    "category": "Meal Site",
    "latitude": 42.3289189,
    "longitude": -71.0527652
  },
  {
    "name": "GBCGAC Chinatown Hong Lok House",
    "address": "25 Essex St, Boston, MA 02111",
    "phone": "(617) 936-3966",
    "availability": {
      "mon": [
        "11:00am",
        "01:00pm"
      ],
      "tue": [
        "11:00am",
        "01:00pm"
      ],
      "wed": [
        "11:00am",
        "01:00pm"
      ],
      "thu": [
        "11:00am",
        "01:00pm"
      ],
      "fri": [
        "11:00am",
        "01:00pm"
      ],
      "sat": [],
      "sun": []
    },
    "category": "Snap Application Assistance",
    "latitude": 42.3523068,
    "longitude": -71.0617243
  },
  {
    "name": "GBCGAC Chinatown Quincy Tower",
    "address": "5 Oak St West, Boston, MA 02116",
    "phone": "(617) 423-7560",
    "availability": {
      "mon": [
        "11:00am",
        "01:00pm"
      ],
      "tue": [
        "11:00am",
        "01:00pm"
      ],
      "wed": [
        "11:00am",
        "01:00pm"
      ],
      "thu": [
        "11:00am",
        "01:00pm"
      ],
      "fri": [
        "11:00am",
        "01:00pm"
      ],
      "sat": [],
      "sun": []
    },
    "category": "Snap Application Assistance",
    "latitude": 42.34833,
    "longitude": -71.06465
  },
  {
    "name": "Ethos Brighton Veronica B. Smith Senior Center",
    "address": "20 Chestnut Hill Ave, Boston, MA 02135",
    "phone": "(617) 522-6700",
    "availability": {
      "mon": [
        "11:30am",
        "01:00pm"
      ],
      "tue": [
        "11:30am",
        "01:00pm"
      ],
      "wed": [
        "11:30am",
        "01:00pm"
      ],
      "thu": [
        "11:30am",
        "01:00pm"
      ],
      "fri": [
        "11:30am",
        "01:00pm"
      ],
      "sat": [],
      "sun": []
    },
    "category": "Senior Dining Assistance",
    "latitude": 42.34826,
    "longitude": -71.15345
  },
  {
    "name": "Ethos Brighton Covenant House",
    "address": "30 Washington St, Brighton, MA 02135",
    "phone": "(617) 522-6700",
    "availability": {
      "mon": [],
      "tue": [
        "05:15pm",
        "06:15pm"
      ],
      "wed": [],
      "thu": [],
      "fri": [],
      "sat": [],
      "sun": []
    },
    "category": "Senior Dining Assistance",
    "latitude": 42.34288,
    "longitude": -71.14207
  },
  {
    "name": "GBCGAC Brighton House",
    "address": "677 Cambridge St, Brighton, MA 02135",
    "phone": "(617) 789-4289",
    "availability": {
      "mon": [
        "11:00am",
        "01:00pm"
      ],
      "tue": [
        "11:00am",
        "01:00pm"
      ],
      "wed": [
        "11:00am",
        "01:00pm"
      ],
      "thu": [
        "11:00am",
        "01:00pm"
      ],
      "fri": [
        "11:00am",
        "01:00pm"
      ],
      "sat": [],
      "sun": []
    },
    "category": "Senior Dining Assistance",
    "latitude": 42.35105,
    "longitude": -71.14562
  },
  {
    "name": "Kit Clark Charlestown",
    "address": "382 Main St, Charlestown, MA 02129",
    "phone": "(617) 825-5000",
    "availability": {
      "mon": [],
      "tue": [
        "11:00am",
        "01:00pm"
      ],
      "wed": [
        "11:00am",
        "01:00pm"
      ],
      "thu": [],
      "fri": [
        "11:00am",
        "01:00pm"
      ],
      "sat": [],
      "sun": []
    },
    "category": "Senior Dining Assistance",
    "latitude": 42.37977,
    "longitude": -71.06992
  },
  {
    "name": "Kit Clark Charlestown Ferrin",
    "address": "100 Ferrin St, Charlestown, MA 02129",
    "phone": "(617) 825-5000",
    "availability": {
      "mon": [
        "11:00am",
        "01:00pm"
      ],
      "tue": [
        "11:00am",
        "01:00pm"
      ],
      "wed": [
        "11:00am",
        "01:00pm"
      ],
      "thu": [
        "11:00am",
        "01:00pm"
      ],
      "fri": [
        "11:00am",
        "01:00pm"
      ],
      "sat": [],
      "sun": []
    },
    "category": "Senior Dining Assistance",
    "latitude": 42.37754,
    "longitude": -71.05896
  },
  {
    "name": "Blake Estates",
    "address": "1344 Hyde Park Ave, Hyde Park, MA 02136",
    "phone": "(617) 522-6700",
    "availability": {
      "mon": [],
      "tue": [
        "11:30am",
        "01:00pm"
      ],
      "wed": [],
      "thu": [
        "11:30am",
        "01:00pm"
      ],
      "fri": [],
      "sat": [],
      "sun": []
    },
    "category": "Senior Dining Assistance",
    "latitude": 42.25169,
    "longitude": -71.1248
  },
  {
    "name": "Kit Clark at Roxbury Alianza",
    "address": "63 Parker Hill Ave, Boston, MA 02120",
    "phone": "(617) 825-5000",
    "availability": {
      "mon": [
        "11:00am",
        "01:00pm"
      ],
      "tue": [
        "11:00am",
        "01:00pm"
      ],
      "wed": [
        "11:00am",
        "01:00pm"
      ],
      "thu": [
        "11:00am",
        "01:00pm"
      ],
      "fri": [
        "11:00am",
        "01:00pm"
      ],
      "sat": [],
      "sun": []
    },
    "category": "Senior Dining Assistance",
    "latitude": 42.33056,
    "longitude": -71.10906
  },
  {
    "name": "Kit Clark at Roxbury",
    "address": "25 Ruggles St, Roxbury, MA 02119",
    "phone": "(617) 825-5000",
    "availability": {
      "mon": [
        "11:00am",
        "01:00pm"
      ],
      "tue": [
        "11:00am",
        "01:00pm"
      ],
      "wed": [
        "11:00am",
        "01:00pm"
      ],
      "thu": [
        "11:00am",
        "01:00pm"
      ],
      "fri": [
        "11:00am",
        "01:00pm"
      ],
      "sat": [],
      "sun": []
    },
    "category": "Senior Dining Assistance",
    "latitude": 42.33181,
    "longitude": -71.08321
  },
  {
    "name": "Kit Clark People’s Baptist Church",
    "address": "134 Camden St, Boston, MA 02118",
    "phone": "(617) 825-5000",
    "availability": {
      "mon": [],
      "tue": [],
      "wed": [],
      "thu": [
        "11:00am",
        "01:00pm"
      ],
      "fri": [],
      "sat": [],
      "sun": []
    },
    "category": "Senior Dining Assistance",
    "latitude": 42.33813,
    "longitude": -71.08188
  },
  {
    "name": "Kit Clark Roxbury at St Patrick’s",
    "address": "400 Dudley St, Boston, MA 02119",
    "phone": "(617) 825-5000",
    "availability": {
      "mon": [],
      "tue": [
        "11:00am",
        "01:00pm"
      ],
      "wed": [],
      "thu": [],
      "fri": [],
      "sat": [],
      "sun": []
    },
    "category": "Senior Dining Assistance",
    "latitude": 42.3261526,
    "longitude": -71.075179
  },
  {
    "name": "Kit Clark at Roxbury",
    "address": "237 Walnut Ave, Roxbury, MA 02119",
    "phone": "(617) 825-5000",
    "availability": {
      "mon": [],
      "tue": [],
      "wed": [],
      "thu": [],
      "fri": [
        "11:00am",
        "01:00pm"
      ],
      "sat": [],
      "sun": []
    },
    "category": "Senior Dining Assistance",
    "latitude": 42.31888,
    "longitude": -71.09101
  },
  {
    "name": "Kit Clark at Curley",
    "address": "1663 Columbia Rd, Boston, MA 02127",
    "phone": "(617) 825-5000",
    "availability": {
      "mon": [
        "11:00am",
        "01:00pm"
      ],
      "tue": [
        "11:00am",
        "01:00pm"
      ],
      "wed": [
        "11:00am",
        "01:00pm"
      ],
      "thu": [
        "11:00am",
        "01:00pm"
      ],
      "fri": [
        "11:00am",
        "01:00pm"
      ],
      "sat": [],
      "sun": []
    },
    "category": "Senior Dining Assistance",
    "latitude": 42.3293751,
    "longitude": -71.0354182
  },
  {
    "name": "Kit Clark at Neighborhood House",
    "address": "136 H St, Boston, MA 02127",
    "phone": "(617) 825-5000",
    "availability": {
      "mon": [
        "11:00am",
        "01:00pm"
      ],
      "tue": [],
      "wed": [
        "11:00am",
        "01:00pm"
      ],
      "thu": [],
      "fri": [
        "11:00am",
        "01:00pm"
      ],
      "sat": [],
      "sun": []
    },
    "category": "Senior Dining Assistance",
    "latitude": 42.33319,
    "longitude": -71.04111
  },
  {
    "name": "Anna Bissonette",
    "address": "1640 Washington St, Boston, MA 02118",
    "phone": "(617) 825-5000",
    "availability": {
      "mon": [
        "11:00am",
        "01:00pm"
      ],
      "tue": [
        "11:00am",
        "01:00pm"
      ],
      "wed": [],
      "thu": [
        "11:00am",
        "01:00pm"
      ],
      "fri": [
        "11:00am",
        "01:00pm"
      ],
      "sat": [],
      "sun": []
    },
    "category": "Senior Dining Assistance",
    "latitude": 42.33764,
    "longitude": -71.07494
  },
  {
    "name": "South End Unity",
    "address": "80 W Dedham St, Boston, MA 02118",
    "phone": "(617) 825-5000",
    "availability": {
      "mon": [
        "11:30am",
        "01:00pm"
      ],
      "tue": [
        "11:30am",
        "01:00pm"
      ],
      "wed": [
        "11:30am",
        "01:00pm"
      ],
      "thu": [
        "11:30am",
        "01:00pm"
      ],
      "fri": [
        "11:30am",
        "01:00pm"
      ],
      "sat": [],
      "sun": []
    },
    "category": "Senior Dining Assistance",
    "latitude": 42.34178,
    "longitude": -71.07315
  },
  {
    "name": "Kit Clark at South End Cardinal Medeiros Center",
    "address": "25 Isabella St, Boston, MA 02116",
    "phone": "(617) 825-5000",
    "availability": {
      "mon": [
        "11:00am",
        "01:00pm"
      ],
      "tue": [
        "11:00am",
        "01:00pm"
      ],
      "wed": [
        "11:00am",
        "01:00pm"
      ],
      "thu": [
        "11:00am",
        "01:00pm"
      ],
      "fri": [
        "11:00am",
        "01:00pm"
      ],
      "sat": [],
      "sun": []
    },
    "category": "Senior Dining Assistance",
    "latitude": 42.34886,
    "longitude": -71.07023
  },
  {
    "name": "Ethos Back Bay at Emmanuel Church [LGBT]",
    "address": "15 Newbury St, Boston, MA 02116",
    "phone": "(617) 522-6700",
    "availability": {
      "mon": [],
      "tue": [],
      "wed": [],
      "thu": [
        "11:30am",
        "02:00pm"
      ],
      "fri": [],
      "sat": [],
      "sun": []
    },
    "category": "Senior Dining Assistance",
    "latitude": 42.35259,
    "longitude": -71.07239
  },
  {
    "name": "Kit Clark at Morville",
    "address": "100 Norway St, Boston, MA 02115",
    "phone": "(617) 825-5000",
    "availability": {
      "mon": [
        "11:00am",
        "01:00pm"
      ],
      "tue": [
        "11:00am",
        "01:00pm"
      ],
      "wed": [
        "11:00am",
        "01:00pm"
      ],
      "thu": [
        "11:00am",
        "01:00pm"
      ],
      "fri": [
        "11:00am",
        "01:00pm"
      ],
      "sat": [],
      "sun": []
    },
    "category": "Senior Dining Assistance",
    "latitude": 42.34504,
    "longitude": -71.08812
  },
  {
    "name": "Kit Clark Dorchester Codman Apt.",
    "address": "784 Washington St, Boston, MA 02124",
    "phone": "(617) 825-5000",
    "availability": {
      "mon": [
        "11:00am",
        "01:00pm"
      ],
      "tue": [
        "11:00am",
        "01:00pm"
      ],
      "wed": [
        "11:00am",
        "01:00pm"
      ],
      "thu": [
        "11:00am",
        "01:00pm"
      ],
      "fri": [
        "11:00am",
        "01:00pm"
      ],
      "sat": [],
      "sun": []
    },
    "category": "Senior Dining Assistance",
    "latitude": 42.28425,
    "longitude": -71.07095
  },
  {
    "name": "Kit Clark Center",
    "address": "42 Charles St, Dorchester, MA 02122",
    "phone": "(617) 825-5000",
    "availability": {
      "mon": [
        "11:30am",
        "01:00pm"
      ],
      "tue": [
        "11:30am",
        "01:00pm"
      ],
      "wed": [
        "11:30am",
        "01:00pm"
      ],
      "thu": [
        "11:30am",
        "01:00pm"
      ],
      "fri": [
        "11:30am",
        "01:00pm"
      ],
      "sat": [],
      "sun": []
    },
    "category": "Senior Dining Assistance",
    "latitude": 42.29993,
    "longitude": -71.06354
  },
  {
    "name": "Kit Clark Dorchester Peabody Building,",
    "address": "1875 Dorchester Ave, Boston, MA 02124",
    "phone": "(617) 825-5000",
    "availability": {
      "mon": [
        "11:00am",
        "12:00pm"
      ],
      "tue": [
        "11:00am",
        "12:00pm"
      ],
      "wed": [
        "11:00am",
        "12:00pm"
      ],
      "thu": [
        "11:00am",
        "12:00pm"
      ],
      "fri": [
        "11:00am",
        "12:00pm"
      ],
      "sat": [],
      "sun": []
    },
    "category": "Senior Dining Assistance",
    "latitude": 42.2869104,
    "longitude": -71.0641679
  },
  {
    "name": "Kit Clark Dorchester Keystone Apt.",
    "address": "151 Hallet St, Dorchester Center, Boston, MA 02124",
    "phone": "(617) 825-5000",
    "availability": {
      "mon": [
        "11:00am",
        "01:00pm"
      ],
      "tue": [],
      "wed": [],
      "thu": [
        "11:00am",
        "01:00pm"
      ],
      "fri": [
        "11:00am",
        "01:00pm"
      ],
      "sat": [],
      "sun": []
    },
    "category": "Senior Dining Assistance",
    "latitude": 42.27964,
    "longitude": -71.04882
  },
  {
    "name": "Dorchester House Health",
    "address": "1353 Dorchester Ave, Dorchester, MA 02122",
    "phone": "(617) 288-3230",
    "availability": {
      "mon": [],
      "tue": [
        "8:30am",
        "10:30am"
      ],
      "wed": [],
      "thu": [],
      "fri": [],
      "sat": [],
      "sun": []
    },
    "category": "Senior Dining Assistance",
    "latitude": 42.30444,
    "longitude": -71.05945
  },
  {
    "name": "Kit Clark Arch",
    "address": "100 Arch St, Boston, MA 02110",
    "phone": "(617) 825-5000",
    "availability": {
      "mon": [],
      "tue": [],
      "wed": [
        "11:00am",
        "01:00pm"
      ],
      "thu": [],
      "fri": [],
      "sat": [],
      "sun": []
    },
    "category": "Senior Dining Assistance",
    "latitude": 42.3547,
    "longitude": -71.05843
  },
  {
    "name": "East Boston Social Center",
    "address": "68 Central Sq, East Boston, MA 02128",
    "phone": "(617) 825-5000",
    "availability": {
      "mon": [
        "11:00am",
        "01:00pm"
      ],
      "tue": [
        "11:00am",
        "01:00pm"
      ],
      "wed": [
        "11:00am",
        "01:00pm"
      ],
      "thu": [
        "11:00am",
        "01:00pm"
      ],
      "fri": [
        "11:00am",
        "01:00pm"
      ],
      "sat": [],
      "sun": []
    },
    "category": "Senior Dining Assistance",
    "latitude": 42.37422,
    "longitude": -71.0396
  },
  {
    "name": "East Boston Heritage Apt.",
    "address": "209 Summer St, Boston, MA 02128",
    "phone": "(617) 825-5000",
    "availability": {
      "mon": [
        "11:00am",
        "01:00pm"
      ],
      "tue": [
        "11:00am",
        "01:00pm"
      ],
      "wed": [
        "11:00am",
        "01:00pm"
      ],
      "thu": [
        "11:00am",
        "01:00pm"
      ],
      "fri": [
        "11:00am",
        "01:00pm"
      ],
      "sat": [],
      "sun": []
    },
    "category": "Senior Dining Assistance",
    "latitude": 42.43413,
    "longitude": -71.07527
  },
  {
    "name": "Ethos Jamaica Plain at Back of the Hill",
    "address": "100 South Huntington Ave, Jamaica Plain, MA 02130",
    "phone": "(617) 522-6700",
    "availability": {
      "mon": [
        "11:30am",
        "01:00pm"
      ],
      "tue": [
        "11:30am",
        "01:00pm"
      ],
      "wed": [
        "11:30am",
        "01:00pm"
      ],
      "thu": [
        "11:30am",
        "01:00pm"
      ],
      "fri": [
        "11:30am",
        "01:00pm"
      ],
      "sat": [],
      "sun": []
    },
    "category": "Senior Dining Assistance",
    "latitude": 42.32931,
    "longitude": -71.11042
  },
  {
    "name": "Ethos Jamaica Plain at Julia Martin House",
    "address": "90 Bickford St, Boston, MA 02130",
    "phone": "(617) 522-6700",
    "availability": {
      "mon": [],
      "tue": [],
      "wed": [
        "11:30am",
        "01:00pm"
      ],
      "thu": [],
      "fri": [],
      "sat": [],
      "sun": []
    },
    "category": "Senior Dining Assistance",
    "latitude": 42.32355,
    "longitude": -71.10201
  },
  {
    "name": "Ethos Jamaica Plain at Amory St",
    "address": "125 Amory St, Boston, MA 02119",
    "phone": "(617) 522-6700",
    "availability": {
      "mon": [
        "11:45am",
        "01:00pm"
      ],
      "tue": [
        "11:45am",
        "01:00pm"
      ],
      "wed": [
        "11:45am",
        "01:00pm"
      ],
      "thu": [
        "11:45am",
        "01:00pm"
      ],
      "fri": [
        "11:45am",
        "01:00pm"
      ],
      "sat": [],
      "sun": []
    },
    "category": "Senior Dining Assistance",
    "latitude": 42.31964,
    "longitude": -71.10121
  },
  {
    "name": "Ethos Jamaica Plain at Nate Smith House",
    "address": "155 Lamartine St, Boston, MA 02130",
    "phone": "(617) 522-6700",
    "availability": {
      "mon": [],
      "tue": [],
      "wed": [
        "11:15am",
        "01:00pm"
      ],
      "thu": [],
      "fri": [
        "11:15am",
        "01:00pm"
      ],
      "sat": [],
      "sun": []
    },
    "category": "Senior Dining Assistance",
    "latitude": 42.31817,
    "longitude": -71.10443
  },
  {
    "name": "Ethos Jamaica Plain at CrossRoads Café",
    "address": "633 Centre St, Boston, MA 02130",
    "phone": "(617) 522-6700",
    "availability": {
      "mon": [],
      "tue": [],
      "wed": [],
      "thu": [],
      "fri": [],
      "sat": [
        "12:45pm",
        "02:00pm"
      ],
      "sun": []
    },
    "category": "Senior Dining Assistance",
    "latitude": 42.31358,
    "longitude": -71.1142
  },
  {
    "name": "Ethos Jamaica Plain, Farnsworth",
    "address": "90 South St, Jamaica Plain, MA 02130",
    "phone": "(617) 522-6700",
    "availability": {
      "mon": [
        "11:15am",
        "01:00pm"
      ],
      "tue": [
        "11:15am",
        "01:00pm"
      ],
      "wed": [
        "11:15am",
        "01:00pm"
      ],
      "thu": [
        "11:15am",
        "01:00pm"
      ],
      "fri": [
        "11:15am",
        "01:00pm"
      ],
      "sat": [],
      "sun": []
    },
    "category": "Senior Dining Assistance",
    "latitude": 42.30675,
    "longitude": -71.11508
  },
  {
    "name": "Ethos Jamaica Plain at Woodbourne",
    "address": "6 Southbourne Rd, Jamaica Plain, MA 02130",
    "phone": "(617) 522-6700",
    "availability": {
      "mon": [
        "11:30am",
        "01:00pm"
      ],
      "tue": [
        "11:30am",
        "01:00pm"
      ],
      "wed": [
        "11:30am",
        "01:00pm"
      ],
      "thu": [
        "11:30am",
        "01:00pm"
      ],
      "fri": [
        "11:30am",
        "01:00pm"
      ],
      "sat": [],
      "sun": []
    },
    "category": "Senior Dining Assistance",
    "latitude": 42.29013,
    "longitude": -71.11771
  },
  {
    "name": "Church of the Holy Spirit",
    "address": "525 River St, Boston, MA 02126",
    "phone": "(617) 522-6700",
    "availability": {
      "mon": [
        "11:30am",
        "01:00pm"
      ],
      "tue": [
        "11:30am",
        "01:00pm"
      ],
      "wed": [
        "11:30am",
        "01:00pm"
      ],
      "thu": [
        "11:30am",
        "01:00pm"
      ],
      "fri": [
        "11:30am",
        "01:00pm"
      ],
      "sat": [],
      "sun": []
    },
    "category": "Senior Dining Assistance",
    "latitude": 42.26742,
    "longitude": -71.0946
  },
  {
    "name": "Kit Clark at Beacon",
    "address": "19 Myrtle St, Boston, MA 02114",
    "phone": "null",
    "availability": {
      "mon": [
        "11:00am",
        "01:00pm"
      ],
      "tue": [
        "11:00am",
        "01:00pm"
      ],
      "wed": [
        "11:00am",
        "01:00pm"
      ],
      "thu": [
        "11:00am",
        "01:00pm"
      ],
      "fri": [
        "11:00am",
        "01:00pm"
      ],
      "sat": [],
      "sun": []
    },
    "category": "Senior Dining Assistance",
    "latitude": 42.35943,
    "longitude": -71.06532
  },
  {
    "name": "Ethos West Roxbury at Roche Center",
    "address": "1716 Centre St, West Roxbury, MA 02132",
    "phone": "null",
    "availability": {
      "mon": [],
      "tue": [],
      "wed": [],
      "thu": [],
      "fri": [
        "11:30am",
        "02:00pm"
      ],
      "sat": [],
      "sun": []
    },
    "category": "Senior Dining Assistance",
    "latitude": 42.28669,
    "longitude": -71.14923
  },
  {
    "name": "Fair Foods at St. Botolph House",
    "address": "70 St Botolph St, Boston, MA 02116",
    "phone": "null",
    "availability": {
      "mon": [],
      "tue": [],
      "wed": [],
      "thu": [
        "01:00pm",
        "02:00pm"
      ],
      "fri": [],
      "sat": [],
      "sun": []
    },
    "category": "Affordable Fruit & Vegetable Sources",
    "latitude": 42.34554,
    "longitude": -71.07974
  },
  {
    "name": "Fresh Truck BHA & Newtown",
    "address": "150 Medford St. Charlestown, MA 02129",
    "phone": "null",
    "availability": {
      "mon": [
        "12:00pm",
        "02:00pm"
      ],
      "tue": [],
      "wed": [],
      "thu": [
        "03:00pm",
        "06:00pm"
      ],
      "fri": [],
      "sat": [],
      "sun": []
    },
    "category": "Affordable Fruit & Vegetable Sources",
    "latitude": 42.3791211,
    "longitude": -71.0579479
  },
  {
    "name": "Fairs Foods at The Kennedy Center",
    "address": "55 Bunker Hill St, Charlestown, MA 02129",
    "phone": "null",
    "availability": {
      "mon": [],
      "tue": [],
      "wed": [],
      "thu": [
        "02:00pm",
        "03:30pm"
      ],
      "fri": [],
      "sat": [],
      "sun": []
    },
    "category": "Affordable Fruit & Vegetable Sources",
    "latitude": 42.3768823,
    "longitude": -71.056856
  },
  {
    "name": "Fresh Truck at Franklin Field BHA",
    "address": "100 Ames St, Boston, MA 02124",
    "phone": "(617) 297-7685",
    "availability": {
      "mon": [],
      "tue": [],
      "wed": [
        "03:00pm",
        "06:00pm"
      ],
      "thu": [],
      "fri": [],
      "sat": [],
      "sun": []
    },
    "category": "Affordable Fruit & Vegetable Sources",
    "latitude": 42.28996,
    "longitude": -71.0839
  },
  {
    "name": "Bowdoin Street Health Center",
    "address": "230 Bowdoin St, Dorchester, MA 02125",
    "phone": "null",
    "availability": {
      "mon": [],
      "tue": [
        "12:00pm",
        "03:00pm"
      ],
      "wed": [],
      "thu": [],
      "fri": [],
      "sat": [],
      "sun": []
    },
    "category": "Affordable Fruit & Vegetable Sources",
    "latitude": 42.30588,
    "longitude": -71.06776
  },
  {
    "name": "Fair Foods at Franklin Field Senior Center",
    "address": "100 Ames St, Boston, MA 02124",
    "phone": "(617) 288-6185",
    "availability": {
      "mon": [],
      "tue": [],
      "wed": [],
      "thu": [
        "04:30pm",
        "05:30pm"
      ],
      "fri": [],
      "sat": [],
      "sun": []
    },
    "category": "Affordable Fruit & Vegetable Sources",
    "latitude": 42.28996,
    "longitude": -71.0839
  },
  {
    "name": "Fair Foods at Codman Sq. Library",
    "address": "690 Washington St, Boston, MA 02124",
    "phone": "null",
    "availability": {
      "mon": [],
      "tue": [],
      "wed": [],
      "thu": [],
      "fri": [],
      "sat": [
        "01:30pm",
        "04:30pm"
      ],
      "sun": []
    },
    "category": "Affordable Fruit & Vegetable Sources",
    "latitude": 42.2877455,
    "longitude": -71.0710375
  },
  {
    "name": "Fair Foods at First Parish Church Meetinghouse Hill",
    "address": "10 Parish St, Dorchester, MA 02122",
    "phone": "null",
    "availability": {
      "mon": [],
      "tue": [],
      "wed": [],
      "thu": [],
      "fri": [
        "03:30pm",
        "05:00pm"
      ],
      "sat": [],
      "sun": []
    },
    "category": "Affordable Fruit & Vegetable Sources",
    "latitude": 42.30817,
    "longitude": -71.06204
  },
  {
    "name": "Fair Foods at Lena Park Community Center",
    "address": "150 American Legion Hwy, Boston, MA 02124",
    "phone": "null",
    "availability": {
      "mon": [],
      "tue": [
        "04:30pm",
        "05:30pm"
      ],
      "wed": [],
      "thu": [],
      "fri": [],
      "sat": [],
      "sun": []
    },
    "category": "Affordable Fruit & Vegetable Sources",
    "latitude": 42.29471,
    "longitude": -71.09249
  },
  {
    "name": "Fair Foods at Bethel Hispanic 7th Day Church",
    "address": "1 Dix St, Boston, MA 02122",
    "phone": "null",
    "availability": {
      "mon": [],
      "tue": [],
      "wed": [],
      "thu": [
        "03:00pm",
        "04:00pm"
      ],
      "fri": [],
      "sat": [],
      "sun": []
    },
    "category": "Affordable Fruit & Vegetable Sources",
    "latitude": 42.29499,
    "longitude": -71.06125
  },
  {
    "name": "Fair Foods at Yawkey Boys & Girls Club",
    "address": "115 Warren St, Roxbury, MA 02119",
    "phone": "(617) 288-6185",
    "availability": {
      "mon": [],
      "tue": [
        "04:30pm",
        "05:30pm"
      ],
      "wed": [],
      "thu": [],
      "fri": [],
      "sat": [],
      "sun": []
    },
    "category": "Affordable Fruit & Vegetable Sources",
    "latitude": 42.3268,
    "longitude": -71.0838
  },
  {
    "name": "Fair Foods at Salvation Army",
    "address": "23 Vernon St, Roxbury, MA 02119",
    "phone": "(617) 288-6185",
    "availability": {
      "mon": [],
      "tue": [
        "02:30:pm",
        "03:30pm"
      ],
      "wed": [],
      "thu": [],
      "fri": [],
      "sat": [],
      "sun": []
    },
    "category": "Affordable Fruit & Vegetable Sources",
    "latitude": 42.3308,
    "longitude": -71.08462
  },
  {
    "name": "Fair Foods at First Church of Roxbury",
    "address": "10 Putnam St, Boston, MA 02119",
    "phone": "(617) 288-6185",
    "availability": {
      "mon": [],
      "tue": [],
      "wed": [],
      "thu": [],
      "fri": [],
      "sat": [
        "11:00am",
        "02:00pm"
      ],
      "sun": []
    },
    "category": "Affordable Fruit & Vegetable Sources",
    "latitude": 42.32991,
    "longitude": -71.08915
  },
  {
    "name": "Fair Foods at Whittier Street Apt.",
    "address": "180 Ruggles St, Boston, MA 02120",
    "phone": "(617) 288-6185",
    "availability": {
      "mon": [],
      "tue": [],
      "wed": [],
      "thu": [
        "04:00pm",
        "05:00pm"
      ],
      "fri": [],
      "sat": [],
      "sun": []
    },
    "category": "Affordable Fruit & Vegetable Sources",
    "latitude": 42.33417,
    "longitude": -71.08795
  },
  {
    "name": "Fair Foods at Tobin Community Center",
    "address": "1481 Tremont St, Boston, MA 02120",
    "phone": "(617) 288-6185",
    "availability": {
      "mon": [],
      "tue": [],
      "wed": [
        "04:30pm",
        "05:30pm"
      ],
      "thu": [],
      "fri": [],
      "sat": [],
      "sun": []
    },
    "category": "Affordable Fruit & Vegetable Sources",
    "latitude": 42.33222,
    "longitude": -71.09814
  },
  {
    "name": "Fair Foods at Walnut Park Apt.",
    "address": "1990 Columbus Ave, Roxbury, MA 02119",
    "phone": "(617) 288-6185",
    "availability": {
      "mon": [],
      "tue": [],
      "wed": [],
      "thu": [],
      "fri": [],
      "sat": [
        "11:00am",
        "01:00pm"
      ],
      "sun": []
    },
    "category": "Affordable Fruit & Vegetable Sources",
    "latitude": 42.31533,
    "longitude": -71.0972
  },
  {
    "name": "Fair Foods at West Broadway Task Force",
    "address": "115 Orton Marotta Way, Boston, MA 02127",
    "phone": "(617) 288-6185",
    "availability": {
      "mon": [],
      "tue": [
        "01:30pm",
        "02:30pm"
      ],
      "wed": [],
      "thu": [],
      "fri": [],
      "sat": [],
      "sun": []
    },
    "category": "Affordable Fruit & Vegetable Sources",
    "latitude": 42.33743,
    "longitude": -71.0542
  },
  {
    "name": "Fair Foods at McCormack Task Force",
    "address": "345 Old Colony Ave, Boston, MA 02127",
    "phone": "(617) 288-6185",
    "availability": {
      "mon": [],
      "tue": [],
      "wed": [],
      "thu": [],
      "fri": [
        "02:30pm",
        "03:30pm"
      ],
      "sat": [],
      "sun": []
    },
    "category": "Affordable Fruit & Vegetable Sources",
    "latitude": 42.32879,
    "longitude": -71.05291
  },
  {
    "name": "Fair Foods at Villa Victoria Plaza Betances",
    "address": "100 W Dedham St, Boston, MA 02118",
    "phone": "(617) 288-6185",
    "availability": {
      "mon": [],
      "tue": [
        "02:00pm",
        "03:00pm"
      ],
      "wed": [],
      "thu": [],
      "fri": [],
      "sat": [],
      "sun": []
    },
    "category": "Affordable Fruit & Vegetable Sources",
    "latitude": 42.34215,
    "longitude": -71.07368
  }
]